{"timestamp_ms": 1777083618861, "drone_id": "D1", "position": {"x": 0.0, "y": 0.0}, "roll": 0.0, "pitch": 0.0, "yaw": 0.8254521087687898, "altitude": 25.080997467041016, "danger_zones": [{"x": 60.0, "y": 25.0, "radius": 8.0}, {"x": -30.0, "y": -20.0, "radius": 12.0}]}
{"timestamp_ms": 1777083619062, "drone_id": "D1", "position": {"x": -0.014664902351796627, "y": 0.01453836727887392}, "roll": 22.592998348870584, "pitch": 19.110321206842613, "yaw": 9.321966090720398, "altitude": 25.8531436920166, "danger_zones": [{"x": 60.0, "y": 25.0, "radius": 8.0}, {"x": -30.0, "y": -20.0, "radius": 12.0}]}
{"timestamp_ms": 1777083619263, "drone_id": "D1", "position": {"x": -0.16216108202934265, "y": 0.1534748077392578}, "roll": 32.854812565479975, "pitch": 14.079478041549768, "yaw": 24.022909157244207, "altitude": 26.60370635986328, "danger_zones": [{"x": 60.0, "y": 25.0, "radius": 8.0}, {"x": -30.0, "y": -20.0, "radius": 12.0}]}
{"timestamp_ms": 1777083619464, "drone_id": "D1", "position": {"x": -0.4718143343925476, "y": 0.4597494304180145}, "roll": 33.557689352631364, "pitch": -1.5478169816035927, "yaw": 38.11870066738915, "altitude": 27.27937126159668, "danger_zones": [{"x": 60.0, "y": 25.0, "radius": 8.0}, {"x": -30.0, "y": -20.0, "radius": 12.0}]}
{"timestamp_ms": 1777083619665, "drone_id": "D1", "position": {"x": -0.9655067920684814, "y": 1.012926697731018}, "roll": 30.296307223402284, "pitch": -20.03799086458295, "yaw": 57.41460294466322, "altitude": 28.011287689208984, "danger_zones": [{"x": 60.0, "y": 25.0, "radius": 8.0}, {"x": -30.0, "y": -20.0, "radius": 12.0}]}
{"timestamp_ms": 1777083619866, "drone_id": "D1", "position": {"x": -1.565349817276001, "y": 1.7829351425170898}, "roll": 18.396245256955602, "pitch": -32.004571818427415, "yaw": 84.0544845372034, "altitude": 28.70027732849121, "danger_zones": [{"x": 60.0, "y": 25.0, "radius": 8.0}, {"x": -30.0, "y": -20.0, "radius": 12.0}]}
{"timestamp_ms": 1777083620067, "drone_id": "D1", "position": {"x": -2.2985637187957764, "y": 2.802978992462158}, "roll": -0.39608918835595386, "pitch": -33.077028613326874, "yaw": 118.00477987322613, "altitude": 29.3362979888916, "danger_zones": [{"x": 60.0, "y": 25.0, "radius": 8.0}, {"x": -30.0, "y": -20.0, "radius": 12.0}]}
{"timestamp_ms": 1777083620268, "drone_id": "D1", "position": {"x": -3.0730676651000977, "y": 3.9161479473114014}, "roll": -7.875161577337582, "pitch": -26.03982719754516, "yaw": 137.67114146288873, "altitude": 29.76943588256836, "danger_zones": [{"x": 60.0, "y": 25.0, "radius": 8.0}, {"x": -30.0, "y": -20.0, "radius": 12.0}]}
{"timestamp_ms": 1777083620469, "drone_id": "D1", "position": {"x": -3.8376946449279785, "y": 5.032194137573242}, "roll": -6.5340614663907175, "pitch": -20.682355317861678, "yaw": 139.81188103030001, "altitude": 30.023887634277344, "danger_zones": [{"x": 60.0, "y": 25.0, "radius": 8.0}, {"x": -30.0, "y": -20.0, "radius": 12.0}]}
{"timestamp_ms": 1777083620670, "drone_id": "D1", "position": {"x": -4.769270896911621, "y": 6.40686559677124}, "roll": -2.3705741912615155, "pitch": -15.349121345798585, "yaw": 131.5805057478809, "altitude": 30.28288459777832, "danger_zones": [{"x": 60.0, "y": 25.0, "radius": 8.0}, {"x": -30.0, "y": -20.0, "radius": 12.0}]}
{"timestamp_ms": 1777083620871, "drone_id": "D1", "position": {"x": -5.721985340118408, "y": 7.821511745452881}, "roll": 0.12046289675515033, "pitch": -11.420921857602842, "yaw": 122.8858769690014, "altitude": 30.587499618530273, "danger_zones": [{"x": 60.0, "y": 25.0, "radius": 8.0}, {"x": -30.0, "y": -20.0, "radius": 12.0}]}
{"timestamp_ms": 1777083621072, "drone_id": "D1", "position": {"x": -6.756358623504639, "y": 9.358321189880371}, "roll": 0.7714806628053212, "pitch": -8.299252578131066, "yaw": 119.57824468174591, "altitude": 30.922863006591797, "danger_zones": [{"x": 60.0, "y": 25.0, "radius": 8.0}, {"x": -30.0, "y": -20.0, "radius": 12.0}]}
{"timestamp_ms": 1777083621273, "drone_id": "D1", "position": {"x": -7.758320331573486, "y": 10.843024253845215}, "roll": 0.6282305555869332, "pitch": -6.233974778699735, "yaw": 121.21114938854124, "altitude": 31.272274017333984, "danger_zones": [{"x": 60.0, "y": 25.0, "radius": 8.0}, {"x": -30.0, "y": -20.0, "radius": 12.0}]}
{"timestamp_ms": 1777083621474, "drone_id": "D1", "position": {"x": -8.762707710266113, "y": 12.325627326965332}, "roll": 0.49171469074828683, "pitch": -4.79782624438393, "yaw": 124.07320919216376, "altitude": 31.657787322998047, "danger_zones": [{"x": 60.0, "y": 25.0, "radius": 8.0}, {"x": -30.0, "y": -20.0, "radius": 12.0}]}
{"timestamp_ms": 1777083621675, "drone_id": "D1", "position": {"x": -9.841376304626465, "y": 13.910871505737305}, "roll": 0.5395356720581702, "pitch": -3.7352930507638504, "yaw": 125.93518145208566, "altitude": 32.11453628540039, "danger_zones": [{"x": 60.0, "y": 25.0, "radius": 8.0}, {"x": -30.0, "y": -20.0, "radius": 12.0}]}
{"timestamp_ms": 1777083621876, "drone_id": "D1", "position": {"x": -10.880745887756348, "y": 15.430651664733887}, "roll": 0.6821529067792761, "pitch": -3.038600803615378, "yaw": 126.16241142812979, "altitude": 32.59476089477539, "danger_zones": [{"x": 60.0, "y": 25.0, "radius": 8.0}, {"x": -30.0, "y": -20.0, "radius": 12.0}]}
{"timestamp_ms": 1777083622077, "drone_id": "D1", "position": {"x": -11.956595420837402, "y": 16.994409561157227}, "roll": 0.8055985199838324, "pitch": -2.5643325022641803, "yaw": 125.64516329281568, "altitude": 33.12849044799805, "danger_zones": [{"x": 60.0, "y": 25.0, "radius": 8.0}, {"x": -30.0, "y": -20.0, "radius": 12.0}]}
{"timestamp_ms": 1777083622278, "drone_id": "D1", "position": {"x": -13.00393295288086, "y": 18.506813049316406}, "roll": -0.6943053771609508, "pitch": -2.141079693746945, "yaw": 125.06272101104783, "altitude": 33.68177032470703, "danger_zones": [{"x": 60.0, "y": 25.0, "radius": 8.0}, {"x": -30.0, "y": -20.0, "radius": 12.0}]}
{"timestamp_ms": 1777083622479, "drone_id": "D1", "position": {"x": -14.037399291992188, "y": 20.020938873291016}, "roll": -16.854901587582575, "pitch": 2.779427765997269, "yaw": 119.36453720427943, "altitude": 34.2951545715332, "danger_zones": [{"x": 60.0, "y": 25.0, "radius": 8.0}, {"x": -30.0, "y": -20.0, "radius": 12.0}]}
{"timestamp_ms": 1777083622681, "drone_id": "D1", "position": {"x": -14.955885887145996, "y": 21.5544376373291}, "roll": -32.16228025304098, "pitch": 19.140327567154706, "yaw": 96.13055830428252, "altitude": 34.92500686645508, "danger_zones": [{"x": 60.0, "y": 25.0, "radius": 8.0}, {"x": -30.0, "y": -20.0, "radius": 12.0}]}
{"timestamp_ms": 1777083622882, "drone_id": "D1", "position": {"x": -15.600708961486816, "y": 22.99431037902832}, "roll": -38.21491458812659, "pitch": 19.87009719166041, "yaw": 67.62335915725954, "altitude": 35.60347366333008, "danger_zones": [{"x": 60.0, "y": 25.0, "radius": 8.0}, {"x": -30.0, "y": -20.0, "radius": 12.0}]}
{"timestamp_ms": 1777083623083, "drone_id": "D1", "position": {"x": -15.951313972473145, "y": 24.113277435302734}, "roll": -38.471054898330664, "pitch": 11.792834717640158, "yaw": 40.19380778284428, "altitude": 36.31357955932617, "danger_zones": [{"x": 60.0, "y": 25.0, "radius": 8.0}, {"x": -30.0, "y": -20.0, "radius": 12.0}]}
{"timestamp_ms": 1777083623284, "drone_id": "D1", "position": {"x": -16.097423553466797, "y": 24.833446502685547}, "roll": -34.24622270243127, "pitch": -13.318363734414147, "yaw": 27.07712996651365, "altitude": 37.031124114990234, "danger_zones": [{"x": 60.0, "y": 25.0, "radius": 8.0}, {"x": -30.0, "y": -20.0, "radius": 12.0}]}
{"timestamp_ms": 1777083623485, "drone_id": "D1", "position": {"x": -15.980056762695312, "y": 25.362796783447266}, "roll": -25.459417767662444, "pitch": -35.687029632415, "yaw": 3.3830325307558353, "altitude": 37.93157196044922, "danger_zones": [{"x": 60.0, "y": 25.0, "radius": 8.0}, {"x": -30.0, "y": -20.0, "radius": 12.0}]}
{"timestamp_ms": 1777083623686, "drone_id": "D1", "position": {"x": -15.566678047180176, "y": 25.607078552246094}, "roll": -16.695447362341078, "pitch": -39.101456296406546, "yaw": -32.05082395626811, "altitude": 38.79448699951172, "danger_zones": [{"x": 60.0, "y": 25.0, "radius": 8.0}, {"x": -30.0, "y": -20.0, "radius": 12.0}]}
{"timestamp_ms": 1777083623887, "drone_id": "D1", "position": {"x": -15.003676414489746, "y": 25.652711868286133}, "roll": -3.328370129100947, "pitch": -36.09881354725778, "yaw": -57.19548014990085, "altitude": 39.56263732910156, "danger_zones": [{"x": 60.0, "y": 25.0, "radius": 8.0}, {"x": -30.0, "y": -20.0, "radius": 12.0}]}
{"timestamp_ms": 1777083624088, "drone_id": "D1", "position": {"x": -14.313468933105469, "y": 25.55565071105957}, "roll": 0.2681810651162561, "pitch": -33.55697646584453, "yaw": -59.829308754104915, "altitude": 40.19773864746094, "danger_zones": [{"x": 60.0, "y": 25.0, "radius": 8.0}, {"x": -30.0, "y": -20.0, "radius": 12.0}]}
{"timestamp_ms": 1777083624289, "drone_id": "D1", "position": {"x": -13.618401527404785, "y": 25.368616104125977}, "roll": -7.55237796124806, "pitch": -32.514762796043186, "yaw": -48.450629488638576, "altitude": 40.553993225097656, "danger_zones": [{"x": 60.0, "y": 25.0, "radius": 8.0}, {"x": -30.0, "y": -20.0, "radius": 12.0}]}
{"timestamp_ms": 1777083624490, "drone_id": "D1", "position": {"x": -12.883878707885742, "y": 25.10259437561035}, "roll": -14.451833695497175, "pitch": -31.8716959928985, "yaw": -39.761210158503246, "altitude": 40.66105270385742, "danger_zones": [{"x": 60.0, "y": 25.0, "radius": 8.0}, {"x": -30.0, "y": -20.0, "radius": 12.0}]}
{"timestamp_ms": 1777083624691, "drone_id": "D1", "position": {"x": -12.097626686096191, "y": 24.73917579650879}, "roll": -14.541434116697053, "pitch": -32.62494216019405, "yaw": -39.63213181504654, "altitude": 40.5283203125, "danger_zones": [{"x": 60.0, "y": 25.0, "radius": 8.0}, {"x": -30.0, "y": -20.0, "radius": 12.0}]}
{"timestamp_ms": 1777083624892, "drone_id": "D1", "position": {"x": -11.26551342010498, "y": 24.271753311157227}, "roll": -10.055768763397086, "pitch": -32.79156537590575, "yaw": -44.79832534337272, "altitude": 40.16822052001953, "danger_zones": [{"x": 60.0, "y": 25.0, "radius": 8.0}, {"x": -30.0, "y": -20.0, "radius": 12.0}]}
{"timestamp_ms": 1777083625093, "drone_id": "D1", "position": {"x": -10.419875144958496, "y": 23.702648162841797}, "roll": -6.67618412099749, "pitch": -28.975521949076324, "yaw": -48.99160610998898, "altitude": 39.69512176513672, "danger_zones": [{"x": 60.0, "y": 25.0, "radius": 8.0}, {"x": -30.0, "y": -20.0, "radius": 12.0}]}
{"timestamp_ms": 1777083625294, "drone_id": "D1", "position": {"x": -9.367219924926758, "y": 22.896400451660156}, "roll": -5.258948002316129, "pitch": -23.100701529294835, "yaw": -49.51928764218169, "altitude": 39.02227020263672, "danger_zones": [{"x": 60.0, "y": 25.0, "radius": 8.0}, {"x": -30.0, "y": -20.0, "radius": 12.0}]}
{"timestamp_ms": 1777083625495, "drone_id": "D1", "position": {"x": -8.419271469116211, "y": 22.101099014282227}, "roll": -4.633027818633032, "pitch": -18.617391731422103, "yaw": -47.80990197779423, "altitude": 38.386661529541016, "danger_zones": [{"x": 60.0, "y": 25.0, "radius": 8.0}, {"x": -30.0, "y": -20.0, "radius": 12.0}]}
{"timestamp_ms": 1777083625697, "drone_id": "D1", "position": {"x": -7.3295745849609375, "y": 21.127321243286133}, "roll": -3.5849620226353403, "pitch": -14.768187076261782, "yaw": -45.8340527615328, "altitude": 37.67013168334961, "danger_zones": [{"x": 60.0, "y": 25.0, "radius": 8.0}, {"x": -30.0, "y": -20.0, "radius": 12.0}]}
{"timestamp_ms": 1777083625898, "drone_id": "D1", "position": {"x": -6.142557621002197, "y": 20.018463134765625}, "roll": -2.028289767540603, "pitch": -11.876005355535161, "yaw": -44.570082430649244, "altitude": 36.938682556152344, "danger_zones": [{"x": 60.0, "y": 25.0, "radius": 8.0}, {"x": -30.0, "y": -20.0, "radius": 12.0}]}
{"timestamp_ms": 1777083626099, "drone_id": "D1", "position": {"x": -5.644289493560791, "y": 19.543964385986328}, "roll": -1.3162233036670699, "pitch": -10.955198626583519, "yaw": -44.22418485391948, "altitude": 36.651222229003906, "danger_zones": [{"x": 60.0, "y": 25.0, "radius": 8.0}, {"x": -30.0, "y": -20.0, "radius": 12.0}]}
{"timestamp_ms": 1777083626301, "drone_id": "D1", "position": {"x": -3.831228017807007, "y": 17.80487632751465}, "roll": 1.2472522764817675, "pitch": -8.554196083813022, "yaw": -42.78935290105732, "altitude": 35.714481353759766, "danger_zones": [{"x": 60.0, "y": 25.0, "radius": 8.0}, {"x": -30.0, "y": -20.0, "radius": 12.0}]}
{"timestamp_ms": 1777083626502, "drone_id": "D1", "position": {"x": -2.568329095840454, "y": 16.608182907104492}, "roll": 2.918006705139179, "pitch": -7.496154109362684, "yaw": -41.083594044292944, "altitude": 35.16581344604492, "danger_zones": [{"x": 60.0, "y": 25.0, "radius": 8.0}, {"x": -30.0, "y": -20.0, "radius": 12.0}]}
{"timestamp_ms": 1777083626703, "drone_id": "D1", "position": {"x": -1.2389320135116577, "y": 15.384801864624023}, "roll": 4.55290610264839, "pitch": -6.755643699131578, "yaw": -38.67935572466529, "altitude": 34.67739486694336, "danger_zones": [{"x": 60.0, "y": 25.0, "radius": 8.0}, {"x": -30.0, "y": -20.0, "radius": 12.0}]}
{"timestamp_ms": 1777083626904, "drone_id": "D1", "position": {"x": 0.06084985285997391, "y": 14.23945140838623}, "roll": 5.9986683664226454, "pitch": -6.292175678244918, "yaw": -36.01232454880942, "altitude": 34.28083801269531, "danger_zones": [{"x": 60.0, "y": 25.0, "radius": 8.0}, {"x": -30.0, "y": -20.0, "radius": 12.0}]}
{"timestamp_ms": 1777083627105, "drone_id": "D1", "position": {"x": 1.4303014278411865, "y": 13.097535133361816}, "roll": 7.285849950492154, "pitch": -5.981509855242551, "yaw": -33.14845616831846, "altitude": 33.93791580200195, "danger_zones": [{"x": 60.0, "y": 25.0, "radius": 8.0}, {"x": -30.0, "y": -20.0, "radius": 12.0}]}
{"timestamp_ms": 1777083627306, "drone_id": "D1", "position": {"x": 2.8726985454559326, "y": 11.972331047058105}, "roll": 8.26276671162428, "pitch": -5.761502905983534, "yaw": -30.2962733383938, "altitude": 33.643898010253906, "danger_zones": [{"x": 60.0, "y": 25.0, "radius": 8.0}, {"x": -30.0, "y": -20.0, "radius": 12.0}]}
{"timestamp_ms": 1777083627507, "drone_id": "D1", "position": {"x": 4.388987064361572, "y": 10.874966621398926}, "roll": 8.701132005609557, "pitch": -5.566071661910358, "yaw": -27.690537055197215, "altitude": 33.389400482177734, "danger_zones": [{"x": 60.0, "y": 25.0, "radius": 8.0}, {"x": -30.0, "y": -20.0, "radius": 12.0}]}
{"timestamp_ms": 1777083627708, "drone_id": "D1", "position": {"x": 5.976958274841309, "y": 9.812433242797852}, "roll": 8.480672311117312, "pitch": -5.324247552993179, "yaw": -25.626624254407787, "altitude": 33.160125732421875, "danger_zones": [{"x": 60.0, "y": 25.0, "radius": 8.0}, {"x": -30.0, "y": -20.0, "radius": 12.0}]}
{"timestamp_ms": 1777083627909, "drone_id": "D1", "position": {"x": 7.512409687042236, "y": 8.858327865600586}, "roll": 7.7434653679404475, "pitch": -5.029294077867097, "yaw": -24.38437703854528, "altitude": 32.957298278808594, "danger_zones": [{"x": 60.0, "y": 25.0, "radius": 8.0}, {"x": -30.0, "y": -20.0, "radius": 12.0}]}
{"timestamp_ms": 1777083628110, "drone_id": "D1", "position": {"x": 9.153057098388672, "y": 7.904988765716553}, "roll": 6.5987597310949235, "pitch": -4.682100949024187, "yaw": -23.793194800427493, "altitude": 32.750179290771484, "danger_zones": [{"x": 60.0, "y": 25.0, "radius": 8.0}, {"x": -30.0, "y": -20.0, "radius": 12.0}]}
{"timestamp_ms": 1777083628311, "drone_id": "D1", "position": {"x": 10.797443389892578, "y": 7.004319190979004}, "roll": 5.248794332768257, "pitch": -4.3565671008708104, "yaw": -23.74979159115691, "altitude": 32.54808807373047, "danger_zones": [{"x": 60.0, "y": 25.0, "radius": 8.0}, {"x": -30.0, "y": -20.0, "radius": 12.0}]}
{"timestamp_ms": 1777083628512, "drone_id": "D1", "position": {"x": 12.388397216796875, "y": 6.172747611999512}, "roll": 3.8685216147211277, "pitch": -4.096898311458081, "yaw": -24.03776342313597, "altitude": 32.35701370239258, "danger_zones": [{"x": 60.0, "y": 25.0, "radius": 8.0}, {"x": -30.0, "y": -20.0, "radius": 12.0}]}
{"timestamp_ms": 1777083628713, "drone_id": "D1", "position": {"x": 14.09475326538086, "y": 5.311645984649658}, "roll": 2.4047220573296175, "pitch": -3.8875998339308064, "yaw": -24.5772204713727, "altitude": 32.157554626464844, "danger_zones": [{"x": 60.0, "y": 25.0, "radius": 8.0}, {"x": -30.0, "y": -20.0, "radius": 12.0}]}
{"timestamp_ms": 1777083628914, "drone_id": "D1", "position": {"x": 15.812139511108398, "y": 4.464808940887451}, "roll": 1.0264328129842413, "pitch": -3.7421236290289466, "yaw": -25.299568800617568, "altitude": 31.963335037231445, "danger_zones": [{"x": 60.0, "y": 25.0, "radius": 8.0}, {"x": -30.0, "y": -20.0, "radius": 12.0}]}
{"timestamp_ms": 1777083629115, "drone_id": "D1", "position": {"x": 17.484785079956055, "y": 3.648339033126831}, "roll": -0.16711419004202657, "pitch": -3.6521289037756293, "yaw": -26.143258928066903, "altitude": 31.780738830566406, "danger_zones": [{"x": 60.0, "y": 25.0, "radius": 8.0}, {"x": -30.0, "y": -20.0, "radius": 12.0}]}
{"timestamp_ms": 1777083629316, "drone_id": "D1", "position": {"x": 19.20968246459961, "y": 2.8052074909210205}, "roll": -1.2002560418822987, "pitch": -3.600889463150154, "yaw": -27.1125059171937, "altitude": 31.598758697509766, "danger_zones": [{"x": 60.0, "y": 25.0, "radius": 8.0}, {"x": -30.0, "y": -20.0, "radius": 12.0}]}
{"timestamp_ms": 1777083629517, "drone_id": "D1", "position": {"x": 20.88176918029785, "y": 1.9789611101150513}, "roll": -1.9788210906236978, "pitch": -3.5793398622412353, "yaw": -28.083946369315374, "altitude": 31.427371978759766, "danger_zones": [{"x": 60.0, "y": 25.0, "radius": 8.0}, {"x": -30.0, "y": -20.0, "radius": 12.0}]}
{"timestamp_ms": 1777083629718, "drone_id": "D1", "position": {"x": 22.624576568603516, "y": 1.1018975973129272}, "roll": -2.533020317678659, "pitch": -3.5725644512707273, "yaw": -29.04886165039836, "altitude": 31.25237464904785, "danger_zones": [{"x": 60.0, "y": 25.0, "radius": 8.0}, {"x": -30.0, "y": -20.0, "radius": 12.0}]}
{"timestamp_ms": 1777083629919, "drone_id": "D1", "position": {"x": 24.309513092041016, "y": 0.23412999510765076}, "roll": -2.797273286228268, "pitch": -3.568842344709301, "yaw": -29.858159830880723, "altitude": 31.08502769470215, "danger_zones": [{"x": 60.0, "y": 25.0, "radius": 8.0}, {"x": -30.0, "y": -20.0, "radius": 12.0}]}
{"timestamp_ms": 1777083630120, "drone_id": "D1", "position": {"x": 25.985963821411133, "y": -0.6509580016136169}, "roll": -2.8031312932563943, "pitch": -3.558835836154074, "yaw": -30.476325086085545, "altitude": 30.918737411499023, "danger_zones": [{"x": 60.0, "y": 25.0, "radius": 8.0}, {"x": -30.0, "y": -20.0, "radius": 12.0}]}
{"timestamp_ms": 1777083630321, "drone_id": "D1", "position": {"x": 27.678401947021484, "y": -1.5668320655822754}, "roll": -2.593079203651874, "pitch": -3.5394586545017583, "yaw": -30.880111931748818, "altitude": 30.749935150146484, "danger_zones": [{"x": 60.0, "y": 25.0, "radius": 8.0}, {"x": -30.0, "y": -20.0, "radius": 12.0}]}
{"timestamp_ms": 1777083630522, "drone_id": "D1", "position": {"x": 29.33753776550293, "y": -2.4851794242858887}, "roll": -2.229766902385196, "pitch": -3.514220711278862, "yaw": -31.07053972693908, "altitude": 30.583126068115234, "danger_zones": [{"x": 60.0, "y": 25.0, "radius": 8.0}, {"x": -30.0, "y": -20.0, "radius": 12.0}]}
{"timestamp_ms": 1777083630723, "drone_id": "D1", "position": {"x": 30.91555404663086, "y": -3.375117778778076}, "roll": -1.7890014225965647, "pitch": -3.4890379915944747, "yaw": -31.09180619467757, "altitude": 30.42331314086914, "danger_zones": [{"x": 60.0, "y": 25.0, "radius": 8.0}, {"x": -30.0, "y": -20.0, "radius": 12.0}]}
{"timestamp_ms": 1777083630924, "drone_id": "D1", "position": {"x": 32.58633041381836, "y": -4.331518173217773}, "roll": -1.2706298040774044, "pitch": -3.465262214332013, "yaw": -30.979265200608666, "altitude": 30.25327491760254, "danger_zones": [{"x": 60.0, "y": 25.0, "radius": 8.0}, {"x": -30.0, "y": -20.0, "radius": 12.0}]}
{"timestamp_ms": 1777083631125, "drone_id": "D1", "position": {"x": 34.17933654785156, "y": -5.253269672393799}, "roll": -0.7687073732840785, "pitch": -3.44766101692902, "yaw": -30.771983523272347, "altitude": 30.09080696105957, "danger_zones": [{"x": 60.0, "y": 25.0, "radius": 8.0}, {"x": -30.0, "y": -20.0, "radius": 12.0}]}
{"timestamp_ms": 1777083631326, "drone_id": "D1", "position": {"x": 35.91675567626953, "y": -6.2651495933532715}, "roll": -0.2534789863088191, "pitch": -3.434901700445218, "yaw": -30.465005195473566, "altitude": 29.913766860961914, "danger_zones": [{"x": 60.0, "y": 25.0, "radius": 8.0}, {"x": -30.0, "y": -20.0, "radius": 12.0}]}
{"timestamp_ms": 1777083631527, "drone_id": "D1", "position": {"x": 37.50664520263672, "y": -7.193264007568359}, "roll": 0.16022862056674092, "pitch": -3.4286114597165955, "yaw": -30.13718877414885, "altitude": 29.75225257873535, "danger_zones": [{"x": 60.0, "y": 25.0, "radius": 8.0}, {"x": -30.0, "y": -20.0, "radius": 12.0}]}
{"timestamp_ms": 1777083631728, "drone_id": "D1", "position": {"x": 39.12156677246094, "y": -8.134876251220703}, "roll": 0.5025086976423885, "pitch": -3.4262684718364285, "yaw": -29.786983553722518, "altitude": 29.588836669921875, "danger_zones": [{"x": 60.0, "y": 25.0, "radius": 8.0}, {"x": -30.0, "y": -20.0, "radius": 12.0}]}
{"timestamp_ms": 1777083631929, "drone_id": "D1", "position": {"x": 40.83629608154297, "y": -9.130474090576172}, "roll": 0.7688640859407877, "pitch": -3.4263303513125596, "yaw": -29.42629953242489, "altitude": 29.41606903076172, "danger_zones": [{"x": 60.0, "y": 25.0, "radius": 8.0}, {"x": -30.0, "y": -20.0, "radius": 12.0}]}
{"timestamp_ms": 1777083632130, "drone_id": "D1", "position": {"x": 42.455726623535156, "y": -10.064716339111328}, "roll": 0.9233347875194289, "pitch": -3.427149342536778, "yaw": -29.121266924353616, "altitude": 29.253524780273438, "danger_zones": [{"x": 60.0, "y": 25.0, "radius": 8.0}, {"x": -30.0, "y": -20.0, "radius": 12.0}]}
{"timestamp_ms": 1777083632331, "drone_id": "D1", "position": {"x": 44.07823944091797, "y": -10.99366283416748}, "roll": 0.9848221429339757, "pitch": -3.4274296166649627, "yaw": -28.870536404941305, "altitude": 29.09113121032715, "danger_zones": [{"x": 60.0, "y": 25.0, "radius": 8.0}, {"x": -30.0, "y": -20.0, "radius": 12.0}]}
{"timestamp_ms": 1777083632532, "drone_id": "D1", "position": {"x": 45.77800750732422, "y": -11.958759307861328}, "roll": 0.9610554659854165, "pitch": -3.4265421730692123, "yaw": -28.679162777005796, "altitude": 28.92136001586914, "danger_zones": [{"x": 60.0, "y": 25.0, "radius": 8.0}, {"x": -30.0, "y": -20.0, "radius": 12.0}]}
{"timestamp_ms": 1777083632734, "drone_id": "D1", "position": {"x": 47.40711212158203, "y": -12.876190185546875}, "roll": 0.8700180066542055, "pitch": -3.424526882316782, "yaw": -28.567104163117904, "altitude": 28.75896644592285, "danger_zones": [{"x": 60.0, "y": 25.0, "radius": 8.0}, {"x": -30.0, "y": -20.0, "radius": 12.0}]}
{"timestamp_ms": 1777083632935, "drone_id": "D1", "position": {"x": 49.08857727050781, "y": -13.816133499145508}, "roll": 0.7259847427628825, "pitch": -3.421746846022028, "yaw": -28.519584086874797, "altitude": 28.591564178466797, "danger_zones": [{"x": 60.0, "y": 25.0, "radius": 8.0}, {"x": -30.0, "y": -20.0, "radius": 12.0}]}
{"timestamp_ms": 1777083633136, "drone_id": "D1", "position": {"x": 50.7230110168457, "y": -14.724117279052734}, "roll": 0.55612856602889, "pitch": -3.4190011432822596, "yaw": -28.530478488555634, "altitude": 28.429046630859375, "danger_zones": [{"x": 60.0, "y": 25.0, "radius": 8.0}, {"x": -30.0, "y": -20.0, "radius": 12.0}]}
{"timestamp_ms": 1777083633337, "drone_id": "D1", "position": {"x": 52.38407897949219, "y": -15.642536163330078}, "roll": 0.3711192448919763, "pitch": -3.4165901704154344, "yaw": -28.58787993817111, "altitude": 28.264066696166992, "danger_zones": [{"x": 60.0, "y": 25.0, "radius": 8.0}, {"x": -30.0, "y": -20.0, "radius": 12.0}]}
{"timestamp_ms": 1777083633538, "drone_id": "D1", "position": {"x": 54.07123947143555, "y": -16.57236671447754}, "roll": 0.18639764741752876, "pitch": -3.4147935389592923, "yaw": -28.681817490722146, "altitude": 28.09662628173828, "danger_zones": [{"x": 60.0, "y": 25.0, "radius": 8.0}, {"x": -30.0, "y": -20.0, "radius": 12.0}]}
{"timestamp_ms": 1777083633739, "drone_id": "D1", "position": {"x": 55.70942306518555, "y": -17.473716735839844}, "roll": 0.022655840133220206, "pitch": -3.4137830545658607, "yaw": -28.795564806730418, "altitude": 27.93415069580078, "danger_zones": [{"x": 60.0, "y": 25.0, "radius": 8.0}, {"x": -30.0, "y": -20.0, "radius": 12.0}]}
{"timestamp_ms": 1777083633940, "drone_id": "D1", "position": {"x": 57.27322006225586, "y": -18.333932876586914}, "roll": -0.11065663758006065, "pitch": -3.413359555545417, "yaw": -28.91448307080836, "altitude": 27.77914047241211, "danger_zones": [{"x": 60.0, "y": 25.0, "radius": 8.0}, {"x": -30.0, "y": -20.0, "radius": 12.0}]}
{"timestamp_ms": 1777083634141, "drone_id": "D1", "position": {"x": 58.96082305908203, "y": -19.26309585571289}, "roll": -0.22323594947623976, "pitch": -3.413359908832784, "yaw": -29.043306238490693, "altitude": 27.61191177368164, "danger_zones": [{"x": 60.0, "y": 25.0, "radius": 8.0}, {"x": -30.0, "y": -20.0, "radius": 12.0}]}
{"timestamp_ms": 1777083634342, "drone_id": "D1", "position": {"x": 60.697265625, "y": -20.221025466918945}, "roll": -0.30184926169646226, "pitch": -3.413516870082424, "yaw": -29.166206836080402, "altitude": 27.43981170654297, "danger_zones": [{"x": 60.0, "y": 25.0, "radius": 8.0}, {"x": -30.0, "y": -20.0, "radius": 12.0}]}
{"timestamp_ms": 1777083634543, "drone_id": "D1", "position": {"x": 62.33350372314453, "y": -21.126012802124023}, "roll": -0.3410642390674559, "pitch": -3.4136599903010785, "yaw": -29.26525234558407, "altitude": 27.277545928955078, "danger_zones": [{"x": 60.0, "y": 25.0, "radius": 8.0}, {"x": -30.0, "y": -20.0, "radius": 12.0}]}
{"timestamp_ms": 1777083634744, "drone_id": "D1", "position": {"x": 63.99341583251953, "y": -22.04673957824707}, "roll": -0.3486939836005057, "pitch": -3.4137217448719874, "yaw": -29.343939377713784, "altitude": 27.112821578979492, "danger_zones": [{"x": 60.0, "y": 25.0, "radius": 8.0}, {"x": -30.0, "y": -20.0, "radius": 12.0}]}
{"timestamp_ms": 1777083634945, "drone_id": "D1", "position": {"x": 65.60266876220703, "y": -22.94198226928711}, "roll": -0.3296509847118956, "pitch": -3.4136053350250446, "yaw": -29.396814014566374, "altitude": 26.953046798706055, "danger_zones": [{"x": 60.0, "y": 25.0, "radius": 8.0}, {"x": -30.0, "y": -20.0, "radius": 12.0}]}
{"timestamp_ms": 1777083635147, "drone_id": "D1", "position": {"x": 67.28507995605469, "y": -23.880537033081055}, "roll": -0.2879638396457794, "pitch": -3.413359821830359, "yaw": -29.427314631027123, "altitude": 26.785863876342773, "danger_zones": [{"x": 60.0, "y": 25.0, "radius": 8.0}, {"x": -30.0, "y": -20.0, "radius": 12.0}]}
{"timestamp_ms": 1777083635348, "drone_id": "D1", "position": {"x": 68.86762237548828, "y": -24.76551628112793}, "roll": -0.2345884103362711, "pitch": -3.413079628221215, "yaw": -29.43478376971119, "altitude": 26.628515243530273, "danger_zones": [{"x": 60.0, "y": 25.0, "radius": 8.0}, {"x": -30.0, "y": -20.0, "radius": 12.0}]}
{"timestamp_ms": 1777083635549, "drone_id": "D1", "position": {"x": 70.57583618164062, "y": -25.72142791748047}, "roll": 3.1399519180962474, "pitch": -3.084226515508716, "yaw": -28.926392586789014, "altitude": 26.506437301635742, "danger_zones": [{"x": 60.0, "y": 25.0, "radius": 8.0}, {"x": -30.0, "y": -20.0, "radius": 12.0}]}
{"timestamp_ms": 1777083635750, "drone_id": "D1", "position": {"x": 72.32721710205078, "y": -26.653778076171875}, "roll": 23.60301038283243, "pitch": 8.770596641016155, "yaw": -17.42274166417388, "altitude": 26.501869201660156, "danger_zones": [{"x": 60.0, "y": 25.0, "radius": 8.0}, {"x": -30.0, "y": -20.0, "radius": 12.0}]}
{"timestamp_ms": 1777083635951, "drone_id": "D1", "position": {"x": 73.86949920654297, "y": -27.310678482055664}, "roll": 34.33196244689127, "pitch": 19.648258585482008, "yaw": 6.4986174020463485, "altitude": 26.537214279174805, "danger_zones": [{"x": 60.0, "y": 25.0, "radius": 8.0}, {"x": -30.0, "y": -20.0, "radius": 12.0}]}
{"timestamp_ms": 1777083636152, "drone_id": "D1", "position": {"x": 75.35105895996094, "y": -27.717790603637695}, "roll": 38.8904405605002, "pitch": 19.15281636521304, "yaw": 36.66837331687174, "altitude": 26.66082191467285, "danger_zones": [{"x": 60.0, "y": 25.0, "radius": 8.0}, {"x": -30.0, "y": -20.0, "radius": 12.0}]}
{"timestamp_ms": 1777083636353, "drone_id": "D1", "position": {"x": 76.41317749023438, "y": -27.868385314941406}, "roll": 36.86293870900799, "pitch": 4.066898001430178, "yaw": 58.71799057188051, "altitude": 26.867145538330078, "danger_zones": [{"x": 60.0, "y": 25.0, "radius": 8.0}, {"x": -30.0, "y": -20.0, "radius": 12.0}]}
{"timestamp_ms": 1777083636554, "drone_id": "D1", "position": {"x": 77.12216186523438, "y": -27.83134651184082}, "roll": 31.88755529955192, "pitch": -19.46902334515589, "yaw": 76.9511660546789, "altitude": 27.189985275268555, "danger_zones": [{"x": 60.0, "y": 25.0, "radius": 8.0}, {"x": -30.0, "y": -20.0, "radius": 12.0}]}
{"timestamp_ms": 1777083636755, "drone_id": "D1", "position": {"x": 77.49677276611328, "y": -27.555866241455078}, "roll": 24.21320806118912, "pitch": -35.81820435767416, "yaw": 102.31387846182064, "altitude": 27.60543441772461, "danger_zones": [{"x": 60.0, "y": 25.0, "radius": 8.0}, {"x": -30.0, "y": -20.0, "radius": 12.0}]}
{"timestamp_ms": 1777083636956, "drone_id": "D1", "position": {"x": 77.564697265625, "y": -27.00284767150879}, "roll": 10.858043139869675, "pitch": -38.36089295535691, "yaw": 139.34306580154245, "altitude": 28.112213134765625, "danger_zones": [{"x": 60.0, "y": 25.0, "radius": 8.0}, {"x": -30.0, "y": -20.0, "radius": 12.0}]}
{"timestamp_ms": 1777083637157, "drone_id": "D1", "position": {"x": 77.38021087646484, "y": -26.362335205078125}, "roll": -1.9368276325004317, "pitch": -34.64062269845469, "yaw": 162.294095673032, "altitude": 28.533315658569336, "danger_zones": [{"x": 60.0, "y": 25.0, "radius": 8.0}, {"x": -30.0, "y": -20.0, "radius": 12.0}]}
{"timestamp_ms": 1777083637358, "drone_id": "D1", "position": {"x": 77.01094818115234, "y": -25.63496971130371}, "roll": -3.8786006333026113, "pitch": -33.08360132295349, "yaw": 167.12380927091138, "altitude": 28.85008430480957, "danger_zones": [{"x": 60.0, "y": 25.0, "radius": 8.0}, {"x": -30.0, "y": -20.0, "radius": 12.0}]}
{"timestamp_ms": 1777083637559, "drone_id": "D1", "position": {"x": 76.43880462646484, "y": -24.838260650634766}, "roll": 3.8488833779811724, "pitch": -32.7576854071497, "yaw": 157.86775662091125, "altitude": 29.098960876464844, "danger_zones": [{"x": 60.0, "y": 25.0, "radius": 8.0}, {"x": -30.0, "y": -20.0, "radius": 12.0}]}
{"timestamp_ms": 1777083637760, "drone_id": "D1", "position": {"x": 75.63249969482422, "y": -23.976058959960938}, "roll": 6.70649335526411, "pitch": -30.928102463040346, "yaw": 145.04130644861044, "altitude": 29.332042694091797, "danger_zones": [{"x": 60.0, "y": 25.0, "radius": 8.0}, {"x": -30.0, "y": -20.0, "radius": 12.0}]}
{"timestamp_ms": 1777083637961, "drone_id": "D1", "position": {"x": 74.62265014648438, "y": -23.02364158630371}, "roll": 5.832099212250317, "pitch": -25.952724654230668, "yaw": 136.2640819340966, "altitude": 29.480119705200195, "danger_zones": [{"x": 60.0, "y": 25.0, "radius": 8.0}, {"x": -30.0, "y": -20.0, "radius": 12.0}]}
{"timestamp_ms": 1777083638162, "drone_id": "D1", "position": {"x": 73.55738067626953, "y": -22.057403564453125}, "roll": 3.082583237590553, "pitch": -21.036531364273642, "yaw": 134.62585839220014, "altitude": 29.477201461791992, "danger_zones": [{"x": 60.0, "y": 25.0, "radius": 8.0}, {"x": -30.0, "y": -20.0, "radius": 12.0}]}
{"timestamp_ms": 1777083638363, "drone_id": "D1", "position": {"x": 72.39276123046875, "y": -21.016559600830078}, "roll": 0.06490765187138817, "pitch": -16.586630527892332, "yaw": 136.0280034368061, "altitude": 29.381208419799805, "danger_zones": [{"x": 60.0, "y": 25.0, "radius": 8.0}, {"x": -30.0, "y": -20.0, "radius": 12.0}]}
{"timestamp_ms": 1777083638564, "drone_id": "D1", "position": {"x": 71.16322326660156, "y": -19.91390037536621}, "roll": -2.1574091152387305, "pitch": -12.892213473147272, "yaw": 136.76480191028978, "altitude": 29.244997024536133, "danger_zones": [{"x": 60.0, "y": 25.0, "radius": 8.0}, {"x": -30.0, "y": -20.0, "radius": 12.0}]}
{"timestamp_ms": 1777083638765, "drone_id": "D1", "position": {"x": 69.96774291992188, "y": -18.821712493896484}, "roll": -3.6223458666200217, "pitch": -10.26229779006773, "yaw": 135.63443975532348, "altitude": 29.116668701171875, "danger_zones": [{"x": 60.0, "y": 25.0, "radius": 8.0}, {"x": -30.0, "y": -20.0, "radius": 12.0}]}
{"timestamp_ms": 1777083638966, "drone_id": "D1", "position": {"x": 68.61739349365234, "y": -17.5471134185791}, "roll": -4.949770582445293, "pitch": -8.241156084258657, "yaw": 132.86660224745214, "altitude": 29.001935958862305, "danger_zones": [{"x": 60.0, "y": 25.0, "radius": 8.0}, {"x": -30.0, "y": -20.0, "radius": 12.0}]}
{"timestamp_ms": 1777083639167, "drone_id": "D1", "position": {"x": 67.34169006347656, "y": -16.280893325805664}, "roll": -5.915258338161075, "pitch": -6.699246822253585, "yaw": 129.81690283501726, "altitude": 28.982051849365234, "danger_zones": [{"x": 60.0, "y": 25.0, "radius": 8.0}, {"x": -30.0, "y": -20.0, "radius": 12.0}]}
{"timestamp_ms": 1777083639368, "drone_id": "D1", "position": {"x": 66.00455474853516, "y": -14.87523365020752}, "roll": -7.093267704483991, "pitch": -5.841033738507584, "yaw": 126.89796809887967, "altitude": 29.04851531982422, "danger_zones": [{"x": 60.0, "y": 25.0, "radius": 8.0}, {"x": -30.0, "y": -20.0, "radius": 12.0}]}
{"timestamp_ms": 1777083639569, "drone_id": "D1", "position": {"x": 64.79033660888672, "y": -13.525897026062012}, "roll": -8.003486537773595, "pitch": -5.420771468097437, "yaw": 124.58699204603357, "altitude": 29.11342430114746, "danger_zones": [{"x": 60.0, "y": 25.0, "radius": 8.0}, {"x": -30.0, "y": -20.0, "radius": 12.0}]}
{"timestamp_ms": 1777083639770, "drone_id": "D1", "position": {"x": 63.557533264160156, "y": -12.06957721710205}, "roll": -8.504066148648347, "pitch": -5.133788962099987, "yaw": 122.4955078840889, "altitude": 29.1817626953125, "danger_zones": [{"x": 60.0, "y": 25.0, "radius": 8.0}, {"x": -30.0, "y": -20.0, "radius": 12.0}]}
{"timestamp_ms": 1777083639971, "drone_id": "D1", "position": {"x": 62.42018508911133, "y": -10.636495590209961}, "roll": -8.472973959648549, "pitch": -4.900544904200152, "yaw": 120.78845929375954, "altitude": 29.244457244873047, "danger_zones": [{"x": 60.0, "y": 25.0, "radius": 8.0}, {"x": -30.0, "y": -20.0, "radius": 12.0}]}
{"timestamp_ms": 1777083640172, "drone_id": "D1", "position": {"x": 61.2585334777832, "y": -9.075089454650879}, "roll": -7.926280195507927, "pitch": -4.632657340519797, "yaw": 119.3754284477205, "altitude": 29.3039608001709, "danger_zones": [{"x": 60.0, "y": 25.0, "radius": 8.0}, {"x": -30.0, "y": -20.0, "radius": 12.0}]}
{"timestamp_ms": 1777083640373, "drone_id": "D1", "position": {"x": 60.22170639038086, "y": -7.594516277313232}, "roll": -7.035712533295513, "pitch": -4.336999067647476, "yaw": 118.5228501185334, "altitude": 29.349769592285156, "danger_zones": [{"x": 60.0, "y": 25.0, "radius": 8.0}, {"x": -30.0, "y": -20.0, "radius": 12.0}]}
{"timestamp_ms": 1777083640574, "drone_id": "D1", "position": {"x": 59.15110397338867, "y": -5.955920219421387}, "roll": -5.289035808484002, "pitch": -3.7100563909938558, "yaw": 118.10722383156647, "altitude": 29.507911682128906, "danger_zones": [{"x": 60.0, "y": 25.0, "radius": 8.0}, {"x": -30.0, "y": -20.0, "radius": 12.0}]}
{"timestamp_ms": 1777083640775, "drone_id": "D1", "position": {"x": 58.16171646118164, "y": -4.36229944229126}, "roll": -3.743377479583116, "pitch": -3.430660317984472, "yaw": 118.28504577460964, "altitude": 29.715089797973633, "danger_zones": [{"x": 60.0, "y": 25.0, "radius": 8.0}, {"x": -30.0, "y": -20.0, "radius": 12.0}]}
{"timestamp_ms": 1777083640976, "drone_id": "D1", "position": {"x": 57.1507568359375, "y": -2.682987928390503}, "roll": -2.2033386492921907, "pitch": -3.288777091789346, "yaw": 118.92949312627086, "altitude": 29.929340362548828, "danger_zones": [{"x": 60.0, "y": 25.0, "radius": 8.0}, {"x": -30.0, "y": -20.0, "radius": 12.0}]}
{"timestamp_ms": 1777083641177, "drone_id": "D1", "position": {"x": 56.19746017456055, "y": -1.0694915056228638}, "roll": -0.8494260644410274, "pitch": -3.2289169411569105, "yaw": 119.78568184385105, "altitude": 30.134538650512695, "danger_zones": [{"x": 60.0, "y": 25.0, "radius": 8.0}, {"x": -30.0, "y": -20.0, "radius": 12.0}]}
{"timestamp_ms": 1777083641378, "drone_id": "D1", "position": {"x": 55.22093963623047, "y": 0.5953695178031921}, "roll": 0.37880563923663085, "pitch": -3.216000690262533, "yaw": 120.76049434510745, "altitude": 30.348888397216797, "danger_zones": [{"x": 60.0, "y": 25.0, "radius": 8.0}, {"x": -30.0, "y": -20.0, "radius": 12.0}]}
{"timestamp_ms": 1777083641579, "drone_id": "D1", "position": {"x": 54.27151870727539, "y": 2.209516763687134}, "roll": 1.3655324590579463, "pitch": -3.233268050955371, "yaw": 121.72538826857242, "altitude": 30.56089210510254, "danger_zones": [{"x": 60.0, "y": 25.0, "radius": 8.0}, {"x": -30.0, "y": -20.0, "radius": 12.0}]}
{"timestamp_ms": 1777083641780, "drone_id": "D1", "position": {"x": 53.2855110168457, "y": 3.8671181201934814}, "roll": 2.142792050227719, "pitch": -3.267767131280839, "yaw": 122.70225931091721, "altitude": 30.783388137817383, "danger_zones": [{"x": 60.0, "y": 25.0, "radius": 8.0}, {"x": -30.0, "y": -20.0, "radius": 12.0}]}
{"timestamp_ms": 1777083641982, "drone_id": "D1", "position": {"x": 52.3608283996582, "y": 5.395349502563477}, "roll": 2.619728694424307, "pitch": -3.3041726307735018, "yaw": 123.55401706281393, "altitude": 30.992565155029297, "danger_zones": [{"x": 60.0, "y": 25.0, "radius": 8.0}, {"x": -30.0, "y": -20.0, "radius": 12.0}]}
{"timestamp_ms": 1777083642182, "drone_id": "D1", "position": {"x": 51.377845764160156, "y": 6.986828327178955}, "roll": 2.8534223237980436, "pitch": -3.3369439034483572, "yaw": 124.33583800041856, "altitude": 31.21388816833496, "danger_zones": [{"x": 60.0, "y": 25.0, "radius": 8.0}, {"x": -30.0, "y": -20.0, "radius": 12.0}]}
{"timestamp_ms": 1777083642383, "drone_id": "D1", "position": {"x": 50.33322525024414, "y": 8.63924789428711}, "roll": 2.830585480493608, "pitch": -3.3577546430689806, "yaw": 124.96252855067043, "altitude": 31.4464054107666, "danger_zones": [{"x": 60.0, "y": 25.0, "radius": 8.0}, {"x": -30.0, "y": -20.0, "radius": 12.0}]}
{"timestamp_ms": 1777083642584, "drone_id": "D1", "position": {"x": 49.27150344848633, "y": 10.280024528503418}, "roll": 2.5872782901107816, "pitch": -3.362207806730372, "yaw": 125.35840590821059, "altitude": 31.67901039123535, "danger_zones": [{"x": 60.0, "y": 25.0, "radius": 8.0}, {"x": -30.0, "y": -20.0, "radius": 12.0}]}
{"timestamp_ms": 1777083642785, "drone_id": "D1", "position": {"x": 48.209896087646484, "y": 11.886517524719238}, "roll": 2.193379442332361, "pitch": -3.354060371186918, "yaw": 125.53187540786281, "altitude": 31.907855987548828, "danger_zones": [{"x": 60.0, "y": 25.0, "radius": 8.0}, {"x": -30.0, "y": -20.0, "radius": 12.0}]}
{"timestamp_ms": 1777083642986, "drone_id": "D1", "position": {"x": 47.18307876586914, "y": 13.41378116607666}, "roll": 1.7272300287312847, "pitch": -3.340385396529401, "yaw": 125.53066578732515, "altitude": 32.126224517822266, "danger_zones": [{"x": 60.0, "y": 25.0, "radius": 8.0}, {"x": -30.0, "y": -20.0, "radius": 12.0}]}
{"timestamp_ms": 1777083643187, "drone_id": "D1", "position": {"x": 46.09903335571289, "y": 15.004653930664062}, "roll": 1.1967545855146116, "pitch": -3.325523137933507, "yaw": 125.39393556932839, "altitude": 32.354496002197266, "danger_zones": [{"x": 60.0, "y": 25.0, "radius": 8.0}, {"x": -30.0, "y": -20.0, "radius": 12.0}]}
{"timestamp_ms": 1777083643388, "drone_id": "D1", "position": {"x": 44.991878509521484, "y": 16.613876342773438}, "roll": 0.6601595764311371, "pitch": -3.313898358262313, "yaw": 125.15060000835973, "altitude": 32.5864372253418, "danger_zones": [{"x": 60.0, "y": 25.0, "radius": 8.0}, {"x": -30.0, "y": -20.0, "radius": 12.0}]}
{"timestamp_ms": 1777083643589, "drone_id": "D1", "position": {"x": 43.96131896972656, "y": 18.103878021240234}, "roll": 0.19755635823226403, "pitch": -3.307833287670255, "yaw": 124.85897574895084, "altitude": 32.801998138427734, "danger_zones": [{"x": 60.0, "y": 25.0, "radius": 8.0}, {"x": -30.0, "y": -20.0, "radius": 12.0}]}
{"timestamp_ms": 1777083643790, "drone_id": "D1", "position": {"x": 42.86522674560547, "y": 19.68614959716797}, "roll": -0.22946170564813673, "pitch": -3.3063367911021255, "yaw": 124.50758201174449, "altitude": 33.03165054321289, "danger_zones": [{"x": 60.0, "y": 25.0, "radius": 8.0}, {"x": -30.0, "y": -20.0, "radius": 12.0}]}
{"timestamp_ms": 1777083643991, "drone_id": "D1", "position": {"x": 41.75440216064453, "y": 21.292531967163086}, "roll": -0.5747376982042921, "pitch": -3.3088712545097416, "yaw": 124.13696939153292, "altitude": 33.26537322998047, "danger_zones": [{"x": 60.0, "y": 25.0, "radius": 8.0}, {"x": -30.0, "y": -20.0, "radius": 12.0}]}
{"timestamp_ms": 1777083644193, "drone_id": "D1", "position": {"x": 40.72711944580078, "y": 22.78449821472168}, "roll": -0.804687473399951, "pitch": -3.3131671748495966, "yaw": 123.8071750269094, "altitude": 33.482688903808594, "danger_zones": [{"x": 60.0, "y": 25.0, "radius": 8.0}, {"x": -30.0, "y": -20.0, "radius": 12.0}]}
{"timestamp_ms": 1777083644393, "drone_id": "D1", "position": {"x": 39.65618133544922, "y": 24.349374771118164}, "roll": -0.9486084463113199, "pitch": -3.3179009616104946, "yaw": 123.50098449469893, "altitude": 33.710594177246094, "danger_zones": [{"x": 60.0, "y": 25.0, "radius": 8.0}, {"x": -30.0, "y": -20.0, "radius": 12.0}]}
{"timestamp_ms": 1777083644594, "drone_id": "D1", "position": {"x": 38.558937072753906, "y": 25.964706420898438}, "roll": -0.9974059038868467, "pitch": -3.321595767048348, "yaw": 123.24730821795718, "altitude": 33.945621490478516, "danger_zones": [{"x": 60.0, "y": 25.0, "radius": 8.0}, {"x": -30.0, "y": -20.0, "radius": 12.0}]}
{"timestamp_ms": 1777083644795, "drone_id": "D1", "position": {"x": 37.49928283691406, "y": 27.537038803100586}, "roll": -0.9606015942405204, "pitch": -3.3233853788562433, "yaw": 123.07189550091458, "altitude": 34.17385482788086, "danger_zones": [{"x": 60.0, "y": 25.0, "radius": 8.0}, {"x": -30.0, "y": -20.0, "radius": 12.0}]}
{"timestamp_ms": 1777083644996, "drone_id": "D1", "position": {"x": 36.44517135620117, "y": 29.11300277709961}, "roll": -0.8578494362723655, "pitch": -3.323385052384065, "yaw": 122.9679576121555, "altitude": 34.402095794677734, "danger_zones": [{"x": 60.0, "y": 25.0, "radius": 8.0}, {"x": -30.0, "y": -20.0, "radius": 12.0}]}
{"timestamp_ms": 1777083645197, "drone_id": "D1", "position": {"x": 35.38038635253906, "y": 30.71579360961914}, "roll": -0.7061462241954376, "pitch": -3.3222994533001353, "yaw": 122.93027221578318, "altitude": 34.63373947143555, "danger_zones": [{"x": 60.0, "y": 25.0, "radius": 8.0}, {"x": -30.0, "y": -20.0, "radius": 12.0}]}
{"timestamp_ms": 1777083645398, "drone_id": "D1", "position": {"x": 34.413246154785156, "y": 32.17957305908203}, "roll": -0.541686906194852, "pitch": -3.3207700251461514, "yaw": 122.94695795654039, "altitude": 34.84494400024414, "danger_zones": [{"x": 60.0, "y": 25.0, "radius": 8.0}, {"x": -30.0, "y": -20.0, "radius": 12.0}]}
{"timestamp_ms": 1777083645599, "drone_id": "D1", "position": {"x": 33.37110900878906, "y": 33.76334762573242}, "roll": -0.35418677927110315, "pitch": -3.3192734272405726, "yaw": 123.00947313811753, "altitude": 35.07318115234375, "danger_zones": [{"x": 60.0, "y": 25.0, "radius": 8.0}, {"x": -30.0, "y": -20.0, "radius": 12.0}]}
{"timestamp_ms": 1777083645800, "drone_id": "D1", "position": {"x": 32.31553268432617, "y": 35.37213134765625}, "roll": -0.16876195348337655, "pitch": -3.318173870123471, "yaw": 123.10794888764137, "altitude": 35.30482482910156, "danger_zones": [{"x": 60.0, "y": 25.0, "radius": 8.0}, {"x": -30.0, "y": -20.0, "radius": 12.0}]}
{"timestamp_ms": 1777083646001, "drone_id": "D1", "position": {"x": 31.260995864868164, "y": 36.98160171508789}, "roll": -0.0012512306643169724, "pitch": -3.31766128759007, "yaw": 123.22872046371158, "altitude": 35.53651428222656, "danger_zones": [{"x": 60.0, "y": 25.0, "radius": 8.0}, {"x": -30.0, "y": -20.0, "radius": 12.0}]}
{"timestamp_ms": 1777083646202, "drone_id": "D1", "position": {"x": 30.190990447998047, "y": 38.614749908447266}, "roll": 0.1405915726851518, "pitch": -3.3178394384915455, "yaw": 123.36127714050863, "altitude": 35.771827697753906, "danger_zones": [{"x": 60.0, "y": 25.0, "radius": 8.0}, {"x": -30.0, "y": -20.0, "radius": 12.0}]}
{"timestamp_ms": 1777083646403, "drone_id": "D1", "position": {"x": 29.15120506286621, "y": 40.200016021728516}, "roll": 0.24483957759115885, "pitch": -3.3183583051972176, "yaw": 123.488343237881, "altitude": 36.00032043457031, "danger_zones": [{"x": 60.0, "y": 25.0, "radius": 8.0}, {"x": -30.0, "y": -20.0, "radius": 12.0}]}
{"timestamp_ms": 1777083646604, "drone_id": "D1", "position": {"x": 28.11003303527832, "y": 41.78437042236328}, "roll": 0.31349125477528345, "pitch": -3.318938982661115, "yaw": 123.60420682801005, "altitude": 36.22881317138672, "danger_zones": [{"x": 60.0, "y": 25.0, "radius": 8.0}, {"x": -30.0, "y": -20.0, "radius": 12.0}]}
{"timestamp_ms": 1777083646805, "drone_id": "D1", "position": {"x": 27.11382484436035, "y": 43.296669006347656}, "roll": 0.34652032313153175, "pitch": -3.3193073609558543, "yaw": 123.69771087504148, "altitude": 36.44707489013672, "danger_zones": [{"x": 60.0, "y": 25.0, "radius": 8.0}, {"x": -30.0, "y": -20.0, "radius": 12.0}]}
{"timestamp_ms": 1777083647006, "drone_id": "D1", "position": {"x": 26.05337905883789, "y": 44.90217590332031}, "roll": 0.34967918996703684, "pitch": -3.319458006269456, "yaw": 123.77433435986116, "altitude": 36.67906951904297, "danger_zones": [{"x": 60.0, "y": 25.0, "radius": 8.0}, {"x": -30.0, "y": -20.0, "radius": 12.0}]}
{"timestamp_ms": 1777083647207, "drone_id": "D1", "position": {"x": 24.97523307800293, "y": 46.5298957824707}, "roll": 0.3249312382507888, "pitch": -3.3195744691876117, "yaw": 123.82621821415773, "altitude": 36.91445541381836, "danger_zones": [{"x": 60.0, "y": 25.0, "radius": 8.0}, {"x": -30.0, "y": -20.0, "radius": 12.0}]}
{"timestamp_ms": 1777083647409, "drone_id": "D1", "position": {"x": 23.92645263671875, "y": 48.10917282104492}, "roll": 0.2800814489657676, "pitch": -3.3194237513202585, "yaw": 123.85190058614252, "altitude": 37.143062591552734, "danger_zones": [{"x": 60.0, "y": 25.0, "radius": 8.0}, {"x": -30.0, "y": -20.0, "radius": 12.0}]}
{"timestamp_ms": 1777083647609, "drone_id": "D1", "position": {"x": 22.876062393188477, "y": 49.68738555908203}, "roll": 0.22162490985467892, "pitch": -3.3191505652157662, "yaw": 123.85552006489266, "altitude": 37.37166213989258, "danger_zones": [{"x": 60.0, "y": 25.0, "radius": 8.0}, {"x": -30.0, "y": -20.0, "radius": 12.0}]}
{"timestamp_ms": 1777083647810, "drone_id": "D1", "position": {"x": 21.824403762817383, "y": 51.26474380493164}, "roll": 0.15619200426100752, "pitch": -3.31887062992799, "yaw": 123.8403740857483, "altitude": 37.600189208984375, "danger_zones": [{"x": 60.0, "y": 25.0, "radius": 8.0}, {"x": -30.0, "y": -20.0, "radius": 12.0}]}
{"timestamp_ms": 1777083648011, "drone_id": "D1", "position": {"x": 20.787548065185547, "y": 52.81797409057617}, "roll": 0.09084805042013352, "pitch": -3.318720484548754, "yaw": 123.81135748940244, "altitude": 37.82535934448242, "danger_zones": [{"x": 60.0, "y": 25.0, "radius": 8.0}, {"x": -30.0, "y": -20.0, "radius": 12.0}]}
{"timestamp_ms": 1777083648212, "drone_id": "D1", "position": {"x": 19.733930587768555, "y": 54.39491271972656}, "roll": 0.43550090652442663, "pitch": -3.150485935666973, "yaw": 123.83941284655822, "altitude": 38.06779098510742, "danger_zones": [{"x": 60.0, "y": 25.0, "radius": 8.0}, {"x": -30.0, "y": -20.0, "radius": 12.0}]}
{"timestamp_ms": 1777083648413, "drone_id": "D1", "position": {"x": 18.742734909057617, "y": 55.873191833496094}, "roll": 3.402770798591, "pitch": 3.823123196039299, "yaw": 125.5793144291161, "altitude": 38.25440216064453, "danger_zones": [{"x": 60.0, "y": 25.0, "radius": 8.0}, {"x": -30.0, "y": -20.0, "radius": 12.0}]}
{"timestamp_ms": 1777083648614, "drone_id": "D1", "position": {"x": 17.644981384277344, "y": 57.4599494934082}, "roll": 13.767169666489576, "pitch": 24.767307833155837, "yaw": 137.19573645439218, "altitude": 38.384178161621094, "danger_zones": [{"x": 60.0, "y": 25.0, "radius": 8.0}, {"x": -30.0, "y": -20.0, "radius": 12.0}]}
{"timestamp_ms": 1777083648815, "drone_id": "D1", "position": {"x": 16.742366790771484, "y": 58.644432067871094}, "roll": 28.17412914772183, "pitch": 26.45390380367028, "yaw": 156.509627047244, "altitude": 38.554443359375, "danger_zones": [{"x": 60.0, "y": 25.0, "radius": 8.0}, {"x": -30.0, "y": -20.0, "radius": 12.0}]}
{"timestamp_ms": 1777083649016, "drone_id": "D1", "position": {"x": 15.874173164367676, "y": 59.584964752197266}, "roll": 38.03852060033807, "pitch": 21.95040927674344, "yaw": -176.1573318589784, "altitude": 38.81344223022461, "danger_zones": [{"x": 60.0, "y": 25.0, "radius": 8.0}, {"x": -30.0, "y": -20.0, "radius": 12.0}]}
{"timestamp_ms": 1777083649218, "drone_id": "D1", "position": {"x": 15.25348949432373, "y": 60.1233024597168}, "roll": 39.23248252728907, "pitch": 14.513972124378279, "yaw": -147.8066096665381, "altitude": 39.11962127685547, "danger_zones": [{"x": 60.0, "y": 25.0, "radius": 8.0}, {"x": -30.0, "y": -20.0, "radius": 12.0}]}
{"timestamp_ms": 1777083649418, "drone_id": "D1", "position": {"x": 14.906444549560547, "y": 60.393035888671875}, "roll": 34.6414414719445, "pitch": -8.9770464503584, "yaw": -129.4177798639845, "altitude": 39.52274703979492, "danger_zones": [{"x": 60.0, "y": 25.0, "radius": 8.0}, {"x": -30.0, "y": -20.0, "radius": 12.0}]}
{"timestamp_ms": 1777083649619, "drone_id": "D1", "position": {"x": 14.815457344055176, "y": 60.34957504272461}, "roll": 28.176603222922946, "pitch": -31.645075607354634, "yaw": -109.35905331298059, "altitude": 40.015838623046875, "danger_zones": [{"x": 60.0, "y": 25.0, "radius": 8.0}, {"x": -30.0, "y": -20.0, "radius": 12.0}]}
{"timestamp_ms": 1777083649820, "drone_id": "D1", "position": {"x": 14.910318374633789, "y": 59.97010040283203}, "roll": 17.10161543114874, "pitch": -38.74205897947314, "yaw": -75.40309683509486, "altitude": 40.573307037353516, "danger_zones": [{"x": 60.0, "y": 25.0, "radius": 8.0}, {"x": -30.0, "y": -20.0, "radius": 12.0}]}
{"timestamp_ms": 1777083650021, "drone_id": "D1", "position": {"x": 15.219021797180176, "y": 59.31355285644531}, "roll": -1.113492324432365, "pitch": -35.73343329665258, "yaw": -42.4088718019631, "altitude": 41.130985260009766, "danger_zones": [{"x": 60.0, "y": 25.0, "radius": 8.0}, {"x": -30.0, "y": -20.0, "radius": 12.0}]}
{"timestamp_ms": 1777083650222, "drone_id": "D1", "position": {"x": 15.655149459838867, "y": 58.5252571105957}, "roll": -7.790595762509396, "pitch": -33.05803804150067, "yaw": -31.279519325053677, "altitude": 41.51432418823242, "danger_zones": [{"x": 60.0, "y": 25.0, "radius": 8.0}, {"x": -30.0, "y": -20.0, "radius": 12.0}]}
{"timestamp_ms": 1777083650423, "drone_id": "D1", "position": {"x": 16.146648406982422, "y": 57.707420349121094}, "roll": -2.2327559715175185, "pitch": -33.1883471226978, "yaw": -39.0803827436858, "altitude": 41.67987823486328, "danger_zones": [{"x": 60.0, "y": 25.0, "radius": 8.0}, {"x": -30.0, "y": -20.0, "radius": 12.0}]}
{"timestamp_ms": 1777083650624, "drone_id": "D1", "position": {"x": 16.731769561767578, "y": 56.78030776977539}, "roll": 6.1922889216738675, "pitch": -32.3232969489355, "yaw": -51.43260394290116, "altitude": 41.59779357910156, "danger_zones": [{"x": 60.0, "y": 25.0, "radius": 8.0}, {"x": -30.0, "y": -20.0, "radius": 12.0}]}
{"timestamp_ms": 1777083650825, "drone_id": "D1", "position": {"x": 17.357643127441406, "y": 55.840126037597656}, "roll": 9.017476181315837, "pitch": -28.07724505874636, "yaw": -54.362267289318375, "altitude": 41.2850227355957, "danger_zones": [{"x": 60.0, "y": 25.0, "radius": 8.0}, {"x": -30.0, "y": -20.0, "radius": 12.0}]}
{"timestamp_ms": 1777083651026, "drone_id": "D1", "position": {"x": 18.084823608398438, "y": 54.8089485168457}, "roll": 8.484553405536397, "pitch": -22.76803354908008, "yaw": -48.7156525094608, "altitude": 40.7343635559082, "danger_zones": [{"x": 60.0, "y": 25.0, "radius": 8.0}, {"x": -30.0, "y": -20.0, "radius": 12.0}]}
{"timestamp_ms": 1777083651227, "drone_id": "D1", "position": {"x": 18.95646858215332, "y": 53.672367095947266}, "roll": -0.39691096560257977, "pitch": -17.694450276203597, "yaw": -45.474823462343394, "altitude": 40.11806106567383, "danger_zones": [{"x": 60.0, "y": 25.0, "radius": 8.0}, {"x": -30.0, "y": -20.0, "radius": 12.0}]}
{"timestamp_ms": 1777083651428, "drone_id": "D1", "position": {"x": 19.904064178466797, "y": 52.47085189819336}, "roll": -1.738067754054154, "pitch": -14.025722787500056, "yaw": -48.62231005765094, "altitude": 39.67139434814453, "danger_zones": [{"x": 60.0, "y": 25.0, "radius": 8.0}, {"x": -30.0, "y": -20.0, "radius": 12.0}]}
{"timestamp_ms": 1777083651629, "drone_id": "D1", "position": {"x": 20.895803451538086, "y": 51.19736862182617}, "roll": -2.007233260916277, "pitch": -11.384153951483363, "yaw": -53.49225137268357, "altitude": 39.438968658447266, "danger_zones": [{"x": 60.0, "y": 25.0, "radius": 8.0}, {"x": -30.0, "y": -20.0, "radius": 12.0}]}
{"timestamp_ms": 1777083651830, "drone_id": "D1", "position": {"x": 21.986392974853516, "y": 49.76457595825195}, "roll": -2.7377019632561606, "pitch": -9.238096578487658, "yaw": -57.17735075674702, "altitude": 39.30866241455078, "danger_zones": [{"x": 60.0, "y": 25.0, "radius": 8.0}, {"x": -30.0, "y": -20.0, "radius": 12.0}]}
{"timestamp_ms": 1777083652031, "drone_id": "D1", "position": {"x": 22.9595947265625, "y": 48.450687408447266}, "roll": -3.5094616647091645, "pitch": -7.556395465649943, "yaw": -58.61464720735828, "altitude": 39.22390365600586, "danger_zones": [{"x": 60.0, "y": 25.0, "radius": 8.0}, {"x": -30.0, "y": -20.0, "radius": 12.0}]}
{"timestamp_ms": 1777083652232, "drone_id": "D1", "position": {"x": 24.04222297668457, "y": 46.928436279296875}, "roll": -4.20172335697628, "pitch": -6.093962834335559, "yaw": -59.157335091994916, "altitude": 39.25868606567383, "danger_zones": [{"x": 60.0, "y": 25.0, "radius": 8.0}, {"x": -30.0, "y": -20.0, "radius": 12.0}]}
{"timestamp_ms": 1777083652433, "drone_id": "D1", "position": {"x": 25.12593650817871, "y": 45.3471565246582}, "roll": -4.598847721643836, "pitch": -5.212643634122095, "yaw": -59.61954884064558, "altitude": 39.30911636352539, "danger_zones": [{"x": 60.0, "y": 25.0, "radius": 8.0}, {"x": -30.0, "y": -20.0, "radius": 12.0}]}
{"timestamp_ms": 1777083652634, "drone_id": "D1", "position": {"x": 26.17363166809082, "y": 43.76255416870117}, "roll": -4.665498848041459, "pitch": -4.783262854354114, "yaw": -60.38125044880524, "altitude": 39.332584381103516, "danger_zones": [{"x": 60.0, "y": 25.0, "radius": 8.0}, {"x": -30.0, "y": -20.0, "radius": 12.0}]}
{"timestamp_ms": 1777083652835, "drone_id": "D1", "position": {"x": 27.168006896972656, "y": 42.19965744018555}, "roll": -4.249634545884708, "pitch": -4.379208448667893, "yaw": -61.23769239120399, "altitude": 39.35822296142578, "danger_zones": [{"x": 60.0, "y": 25.0, "radius": 8.0}, {"x": -30.0, "y": -20.0, "radius": 12.0}]}
{"timestamp_ms": 1777083653036, "drone_id": "D1", "position": {"x": 28.17007064819336, "y": 40.568241119384766}, "roll": -3.6327232386164456, "pitch": -4.105100120544631, "yaw": -61.866645556077316, "altitude": 39.38438415527344, "danger_zones": [{"x": 60.0, "y": 25.0, "radius": 8.0}, {"x": -30.0, "y": -20.0, "radius": 12.0}]}
{"timestamp_ms": 1777083653237, "drone_id": "D1", "position": {"x": 29.123424530029297, "y": 38.968772888183594}, "roll": -2.920380031126835, "pitch": -3.905358568911054, "yaw": -62.06564460663303, "altitude": 39.40460968017578, "danger_zones": [{"x": 60.0, "y": 25.0, "radius": 8.0}, {"x": -30.0, "y": -20.0, "radius": 12.0}]}
{"timestamp_ms": 1777083653438, "drone_id": "D1", "position": {"x": 30.13179588317871, "y": 37.234500885009766}, "roll": -2.0970463971877744, "pitch": -3.7420900674570787, "yaw": -61.89077303429645, "altitude": 39.42155838012695, "danger_zones": [{"x": 60.0, "y": 25.0, "radius": 8.0}, {"x": -30.0, "y": -20.0, "radius": 12.0}]}
{"timestamp_ms": 1777083653639, "drone_id": "D1", "position": {"x": 31.05739402770996, "y": 35.613162994384766}, "roll": -1.3295899626534986, "pitch": -3.634398115810628, "yaw": -61.52229417307538, "altitude": 39.43393325805664, "danger_zones": [{"x": 60.0, "y": 25.0, "radius": 8.0}, {"x": -30.0, "y": -20.0, "radius": 12.0}]}
{"timestamp_ms": 1777083653840, "drone_id": "D1", "position": {"x": 31.97593116760254, "y": 33.98603057861328}, "roll": -0.6025696272583724, "pitch": -3.5630431139591217, "yaw": -61.0767195599391, "altitude": 39.444114685058594, "danger_zones": [{"x": 60.0, "y": 25.0, "radius": 8.0}, {"x": -30.0, "y": -20.0, "radius": 12.0}]}
